[
    {
        "city": "Asunci\u00f3n", 
        "lat": "-25.3000", 
        "lng": "-57.6333", 
        "country": "Paraguay", 
        "iso2": "PY", 
        "admin_name": "Asunci\u00f3n", 
        "capital": "primary", 
        "population": "1870000", 
        "population_proper": "11693"
    }, 
    {
        "city": "San Lorenzo", 
        "lat": "-25.3431", 
        "lng": "-57.5094", 
        "country": "Paraguay", 
        "iso2": "PY", 
        "admin_name": "Central", 
        "capital": "", 
        "population": "387977", 
        "population_proper": "387977"
    }, 
    {
        "city": "Ciudad del Este", 
        "lat": "-25.5167", 
        "lng": "-54.6167", 
        "country": "Paraguay", 
        "iso2": "PY", 
        "admin_name": "Alto Paran\u00e1", 
        "capital": "admin", 
        "population": "304282", 
        "population_proper": "304282"
    }, 
    {
        "city": "Encarnaci\u00f3n", 
        "lat": "-27.3333", 
        "lng": "-55.8667", 
        "country": "Paraguay", 
        "iso2": "PY", 
        "admin_name": "Itap\u00faa", 
        "capital": "admin", 
        "population": "136308", 
        "population_proper": "136308"
    }, 
    {
        "city": "Pedro Juan Caballero", 
        "lat": "-22.5667", 
        "lng": "-55.7167", 
        "country": "Paraguay", 
        "iso2": "PY", 
        "admin_name": "Amambay", 
        "capital": "admin", 
        "population": "122190", 
        "population_proper": "122190"
    }, 
    {
        "city": "Coronel Oviedo", 
        "lat": "-25.4500", 
        "lng": "-56.4400", 
        "country": "Paraguay", 
        "iso2": "PY", 
        "admin_name": "Caaguaz\u00fa", 
        "capital": "admin", 
        "population": "88101", 
        "population_proper": "51286"
    }, 
    {
        "city": "Concepci\u00f3n", 
        "lat": "-23.4025", 
        "lng": "-57.4414", 
        "country": "Paraguay", 
        "iso2": "PY", 
        "admin_name": "Concepci\u00f3n", 
        "capital": "admin", 
        "population": "87215", 
        "population_proper": "87215"
    }, 
    {
        "city": "Villarrica", 
        "lat": "-25.7500", 
        "lng": "-56.4333", 
        "country": "Paraguay", 
        "iso2": "PY", 
        "admin_name": "Guair\u00e1", 
        "capital": "admin", 
        "population": "41157", 
        "population_proper": "41157"
    }, 
    {
        "city": "It\u00e1", 
        "lat": "-25.5096", 
        "lng": "-57.3600", 
        "country": "Paraguay", 
        "iso2": "PY", 
        "admin_name": "Central", 
        "capital": "", 
        "population": "41090", 
        "population_proper": "18459"
    }, 
    {
        "city": "Salto del Guair\u00e1", 
        "lat": "-24.0200", 
        "lng": "-54.3400", 
        "country": "Paraguay", 
        "iso2": "PY", 
        "admin_name": "Canindey\u00fa", 
        "capital": "admin", 
        "population": "37600", 
        "population_proper": "37600"
    }, 
    {
        "city": "San Pedro de Ycuamandiy\u00fa", 
        "lat": "-24.1000", 
        "lng": "-57.0833", 
        "country": "Paraguay", 
        "iso2": "PY", 
        "admin_name": "San Pedro", 
        "capital": "admin", 
        "population": "35021", 
        "population_proper": "35021"
    }, 
    {
        "city": "Pilar", 
        "lat": "-26.8569", 
        "lng": "-58.3039", 
        "country": "Paraguay", 
        "iso2": "PY", 
        "admin_name": "\u00d1eembuc\u00fa", 
        "capital": "admin", 
        "population": "32810", 
        "population_proper": "32810"
    }, 
    {
        "city": "Yaguar\u00f3n", 
        "lat": "-25.5621", 
        "lng": "-57.2840", 
        "country": "Paraguay", 
        "iso2": "PY", 
        "admin_name": "Paraguar\u00ed", 
        "capital": "", 
        "population": "32000", 
        "population_proper": "32000"
    }, 
    {
        "city": "Ypacara\u00ed", 
        "lat": "-25.4100", 
        "lng": "-57.2800", 
        "country": "Paraguay", 
        "iso2": "PY", 
        "admin_name": "Central", 
        "capital": "", 
        "population": "30150", 
        "population_proper": "17461"
    }, 
    {
        "city": "Tobat\u00ed", 
        "lat": "-25.2600", 
        "lng": "-57.0814", 
        "country": "Paraguay", 
        "iso2": "PY", 
        "admin_name": "Cordillera", 
        "capital": "", 
        "population": "23295", 
        "population_proper": "23295"
    }, 
    {
        "city": "Caacup\u00e9", 
        "lat": "-25.3870", 
        "lng": "-57.1400", 
        "country": "Paraguay", 
        "iso2": "PY", 
        "admin_name": "Cordillera", 
        "capital": "admin", 
        "population": "21696", 
        "population_proper": "21696"
    }, 
    {
        "city": "Paraguar\u00ed", 
        "lat": "-25.6200", 
        "lng": "-57.1600", 
        "country": "Paraguay", 
        "iso2": "PY", 
        "admin_name": "Paraguar\u00ed", 
        "capital": "admin", 
        "population": "18881", 
        "population_proper": "10079"
    }, 
    {
        "city": "Bella Vista", 
        "lat": "-22.1296", 
        "lng": "-56.5200", 
        "country": "Paraguay", 
        "iso2": "PY", 
        "admin_name": "Amambay", 
        "capital": "", 
        "population": "16852", 
        "population_proper": "5653"
    }, 
    {
        "city": "Horqueta", 
        "lat": "-23.3396", 
        "lng": "-57.0500", 
        "country": "Paraguay", 
        "iso2": "PY", 
        "admin_name": "Concepci\u00f3n", 
        "capital": "", 
        "population": "16171", 
        "population_proper": "10531"
    }, 
    {
        "city": "Villa Hayes", 
        "lat": "-25.0900", 
        "lng": "-57.5300", 
        "country": "Paraguay", 
        "iso2": "PY", 
        "admin_name": "Presidente Hayes", 
        "capital": "admin", 
        "population": "15643", 
        "population_proper": "15643"
    }, 
    {
        "city": "Coronel Bogado", 
        "lat": "-27.1700", 
        "lng": "-56.2500", 
        "country": "Paraguay", 
        "iso2": "PY", 
        "admin_name": "Itap\u00faa", 
        "capital": "", 
        "population": "14297", 
        "population_proper": "14297"
    }, 
    {
        "city": "Bel\u00e9n", 
        "lat": "-23.4695", 
        "lng": "-57.2400", 
        "country": "Paraguay", 
        "iso2": "PY", 
        "admin_name": "Concepci\u00f3n", 
        "capital": "", 
        "population": "11359", 
        "population_proper": "1621"
    }, 
    {
        "city": "Filadelfia", 
        "lat": "-22.3400", 
        "lng": "-60.0300", 
        "country": "Paraguay", 
        "iso2": "PY", 
        "admin_name": "Boquer\u00f3n", 
        "capital": "admin", 
        "population": "10470", 
        "population_proper": "8048"
    }, 
    {
        "city": "San Juan Bautista", 
        "lat": "-26.6800", 
        "lng": "-57.1500", 
        "country": "Paraguay", 
        "iso2": "PY", 
        "admin_name": "Misiones", 
        "capital": "admin", 
        "population": "7882", 
        "population_proper": "7882"
    }, 
    {
        "city": "Caazap\u00e1", 
        "lat": "-26.2000", 
        "lng": "-56.3800", 
        "country": "Paraguay", 
        "iso2": "PY", 
        "admin_name": "Caazap\u00e1", 
        "capital": "admin", 
        "population": "5504", 
        "population_proper": "5504"
    }, 
    {
        "city": "Hohenau", 
        "lat": "-27.0795", 
        "lng": "-55.7500", 
        "country": "Paraguay", 
        "iso2": "PY", 
        "admin_name": "Itap\u00faa", 
        "capital": "", 
        "population": "5306", 
        "population_proper": "5306"
    }, 
    {
        "city": "Villa del Rosario", 
        "lat": "-24.4196", 
        "lng": "-57.1000", 
        "country": "Paraguay", 
        "iso2": "PY", 
        "admin_name": "San Pedro", 
        "capital": "", 
        "population": "5123", 
        "population_proper": "2155"
    }, 
    {
        "city": "Puerto Casado", 
        "lat": "-22.2896", 
        "lng": "-57.9400", 
        "country": "Paraguay", 
        "iso2": "PY", 
        "admin_name": "Alto Paraguay", 
        "capital": "", 
        "population": "5000", 
        "population_proper": "5000"
    }, 
    {
        "city": "Arroyos y Esteros", 
        "lat": "-25.0500", 
        "lng": "-57.0900", 
        "country": "Paraguay", 
        "iso2": "PY", 
        "admin_name": "Cordillera", 
        "capital": "", 
        "population": "3055", 
        "population_proper": "2455"
    }, 
    {
        "city": "Aba\u00ed", 
        "lat": "-26.0296", 
        "lng": "-55.9400", 
        "country": "Paraguay", 
        "iso2": "PY", 
        "admin_name": "Caazap\u00e1", 
        "capital": "", 
        "population": "3024", 
        "population_proper": "2553"
    }, 
    {
        "city": "Villa Ygatim\u00ed", 
        "lat": "-24.0796", 
        "lng": "-55.5000", 
        "country": "Paraguay", 
        "iso2": "PY", 
        "admin_name": "Canindey\u00fa", 
        "capital": "", 
        "population": "2809", 
        "population_proper": "2809"
    }, 
    {
        "city": "Mariscal Jos\u00e9 F\u00e9lix Estigarribia", 
        "lat": "-22.0300", 
        "lng": "-60.6100", 
        "country": "Paraguay", 
        "iso2": "PY", 
        "admin_name": "Boquer\u00f3n", 
        "capital": "", 
        "population": "2500", 
        "population_proper": "2000"
    }, 
    {
        "city": "Fuerte Olimpo", 
        "lat": "-21.0696", 
        "lng": "-57.9000", 
        "country": "Paraguay", 
        "iso2": "PY", 
        "admin_name": "Alto Paraguay", 
        "capital": "admin", 
        "population": "2475", 
        "population_proper": "2475"
    }, 
    {
        "city": "Aregu\u00e1", 
        "lat": "-25.3125", 
        "lng": "-57.3847", 
        "country": "Paraguay", 
        "iso2": "PY", 
        "admin_name": "Central", 
        "capital": "admin", 
        "population": "", 
        "population_proper": ""
    }
]